{
    "type": "FeatureCollection",
    "features": [
        {
            "type": "Feature",
            "geometry": {
                "type": "Point",
                "coordinates": [
                    138.595185,
                    -34.927566
                ]
            },
            "properties": {
                "ID": 100220,
                "Title": "City of Adelaide EV Hub",
                "Operator": 3339,
                "UsageCost": "AC 22kW - Free first hour then $0.20/kWh from 6am to 6pm Monday to Friday and then $0.10/kWh at all other times (minimum fee of $1 applies after first hour) - DC fast charging $0.30/kWh"
            }
        },
        {
            "type": "Feature",
            "geometry": {
                "type": "Point",
                "coordinates": [
                    138.869223,
                    -35.081261
                ]
            },
            "properties": {
                "ID": 100221,
                "Title": "Summit Health Centre",
                "Operator": 1,
                "UsageCost": "Free"
            }
        },
        {
            "type": "Feature",
            "geometry": {
                "type": "Point",
                "coordinates": [
                    138.621958,
                    -35.553898
                ]
            },
            "properties": {
                "ID": 100222,
                "Title": "Town Centre",
                "Operator": 3310,
                "UsageCost": "Free"
            }
        },
        {
            "type": "Feature",
            "geometry": {
                "type": "Point",
                "coordinates": [
                    138.784103,
                    -35.502924
                ]
            },
            "properties": {
                "ID": 100223,
                "Title": "Goolwa Visitor Centre",
                "Operator": 3310,
                "UsageCost": "Free"
            }
        },
        {
            "type": "Feature",
            "geometry": {
                "type": "Point",
                "coordinates": [
                    138.318842,
                    -35.447001
                ]
            },
            "properties": {
                "ID": 100224,
                "Title": "Normanville Town Centre",
                "Operator": 3310,
                "UsageCost": "Free"
            }
        },
        {
            "type": "Feature",
            "geometry": {
                "type": "Point",
                "coordinates": [
                    138.891832,
                    -35.261135
                ]
            },
            "properties": {
                "ID": 100225,
                "Title": "Strathalbyn Visitor Information Centre",
                "Operator": 3310,
                "UsageCost": "Free"
            }
        },
        {
            "type": "Feature",
            "geometry": {
                "type": "Point",
                "coordinates": [
                    138.612383,
                    -35.557677
                ]
            },
            "properties": {
                "ID": 100228,
                "Title": "Barker Reserve",
                "Operator": 3310,
                "UsageCost": "Free"
            }
        },
        {
            "type": "Feature",
            "geometry": {
                "type": "Point",
                "coordinates": [
                    138.876881,
                    -34.949496
                ]
            },
            "properties": {
                "ID": 100229,
                "Title": "Adelaide Hills Business Centre",
                "Operator": 1,
                "UsageCost": "Free"
            }
        },
        {
            "type": "Feature",
            "geometry": {
                "type": "Point",
                "coordinates": [
                    138.74983,
                    -34.596481
                ]
            },
            "properties": {
                "ID": 100230,
                "Title": "Gawler Visitor Information Centre",
                "Operator": 5,
                "UsageCost": "Free"
            }
        },
        {
            "type": "Feature",
            "geometry": {
                "type": "Point",
                "coordinates": [
                    138.573561,
                    -34.978283
                ]
            },
            "properties": {
                "ID": 100231,
                "Title": "Office Building car park",
                "Operator": 5,
                "UsageCost": "Free"
            }
        },
        {
            "type": "Feature",
            "geometry": {
                "type": "Point",
                "coordinates": [
                    138.641946,
                    -34.942351
                ]
            },
            "properties": {
                "ID": 100235,
                "Title": "Burnside Shopping Centre",
                "Operator": 5,
                "UsageCost": "Free"
            }
        },
        {
            "type": "Feature",
            "geometry": {
                "type": "Point",
                "coordinates": [
                    137.938553,
                    -35.718295
                ]
            },
            "properties": {
                "ID": 100236,
                "Title": "Penneshaw Kangaroo Island",
                "Operator": 5,
                "UsageCost": "See website or phone for fees"
            }
        },
        {
            "type": "Feature",
            "geometry": {
                "type": "Point",
                "coordinates": [
                    137.638199,
                    -35.655588
                ]
            },
            "properties": {
                "ID": 100237,
                "Title": "Kingscote Kangaroo Island",
                "Operator": 5,
                "UsageCost": "See Chargepoint website"
            }
        },
        {
            "type": "Feature",
            "geometry": {
                "type": "Point",
                "coordinates": [
                    137.263806,
                    -35.791396
                ]
            },
            "properties": {
                "ID": 100238,
                "Title": "Parndana Kangaroo Island",
                "Operator": 1,
                "UsageCost": "See Chargepoint website for fees."
            }
        },
        {
            "type": "Feature",
            "geometry": {
                "type": "Point",
                "coordinates": [
                    138.75035,
                    -34.597536
                ]
            },
            "properties": {
                "ID": 100239,
                "Title": "Gawler Council Administration Centre",
                "Operator": 5,
                "UsageCost": "Free"
            }
        },
        {
            "type": "Feature",
            "geometry": {
                "type": "Point",
                "coordinates": [
                    138.60049,
                    -35.557913
                ]
            },
            "properties": {
                "ID": 100240,
                "Title": "Fleurieu Automotive",
                "Operator": 23,
                "UsageCost": "Free"
            }
        },
        {
            "type": "Feature",
            "geometry": {
                "type": "Point",
                "coordinates": [
                    138.596016,
                    -34.928234
                ]
            },
            "properties": {
                "ID": 100271,
                "Title": "UPark on Grote Street",
                "Operator": 1,
                "UsageCost": "Free"
            }
        },
        {
            "type": "Feature",
            "geometry": {
                "type": "Point",
                "coordinates": [
                    138.72495,
                    -34.923744
                ]
            },
            "properties": {
                "ID": 100310,
                "Title": "Summit Community Centre",
                "Operator": 3310,
                "UsageCost": "Free"
            }
        },
        {
            "type": "Feature",
            "geometry": {
                "type": "Point",
                "coordinates": [
                    138.607544,
                    -34.956149
                ]
            },
            "properties": {
                "ID": 100337,
                "Title": "Unley Nissan",
                "Operator": 5,
                "UsageCost": "Free"
            }
        },
        {
            "type": "Feature",
            "geometry": {
                "type": "Point",
                "coordinates": [
                    138.716045,
                    -35.005512
                ]
            },
            "properties": {
                "ID": 100338,
                "Title": "Organic Market and Cafe",
                "Operator": 5,
                "UsageCost": "Free"
            }
        },
        {
            "type": "Feature",
            "geometry": {
                "type": "Point",
                "coordinates": [
                    138.695129,
                    -34.831159
                ]
            },
            "properties": {
                "ID": 100339,
                "Title": "Tea Tree Plaza Transport Interchange Car Park",
                "Operator": 5,
                "UsageCost": "Parking is $10/day. Fees for EV Charging are $2.80/hr with max $11.20."
            }
        },
        {
            "type": "Feature",
            "geometry": {
                "type": "Point",
                "coordinates": [
                    138.536149,
                    -34.937751
                ]
            },
            "properties": {
                "ID": 100340,
                "Title": "Adelaide Airport Terminal Car Park",
                "Operator": 1,
                "UsageCost": "Free"
            }
        },
        {
            "type": "Feature",
            "geometry": {
                "type": "Point",
                "coordinates": [
                    151.194332,
                    -33.882995
                ]
            },
            "properties": {
                "ID": 100404,
                "Title": "Broadway Supercharger",
                "Operator": 23,
                "UsageCost": "AUD 0.42/kWh;other tariffs for older cars"
            }
        },
        {
            "type": "Feature",
            "geometry": {
                "type": "Point",
                "coordinates": [
                    152.911369,
                    -26.417808
                ]
            },
            "properties": {
                "ID": 105174,
                "Title": "Cooroy Station",
                "Operator": 3317,
                "UsageCost": "AUD $00.45 / kWh"
            }
        },
        {
            "type": "Feature",
            "geometry": {
                "type": "Point",
                "coordinates": [
                    152.698729,
                    -25.539564
                ]
            },
            "properties": {
                "ID": 105175,
                "Title": "Maryborough QESH",
                "Operator": 3317,
                "UsageCost": "AUD $0.30 / kWh"
            }
        },
        {
            "type": "Feature",
            "geometry": {
                "type": "Point",
                "coordinates": [
                    152.279073,
                    -25.235052
                ]
            },
            "properties": {
                "ID": 105176,
                "Title": "Childers QESH",
                "Operator": 3317,
                "UsageCost": "$0.30 per kWh"
            }
        },
        {
            "type": "Feature",
            "geometry": {
                "type": "Point",
                "coordinates": [
                    151.560533,
                    -24.327315
                ]
            },
            "properties": {
                "ID": 105177,
                "Title": "Miriam Vale QESH",
                "Operator": 3317,
                "UsageCost": "$0.30"
            }
        },
        {
            "type": "Feature",
            "geometry": {
                "type": "Point",
                "coordinates": [
                    130.869764,
                    -12.374576
                ]
            },
            "properties": {
                "ID": 106815,
                "Title": "Charles Darwin University - Car Park Orange C",
                "Operator": 45,
                "UsageCost": "Free"
            }
        },
        {
            "type": "Feature",
            "geometry": {
                "type": "Point",
                "coordinates": [
                    128.216951,
                    -17.017009
                ]
            },
            "properties": {
                "ID": 106988,
                "Title": "Warmun Roadhouse",
                "Operator": 1,
                "UsageCost": "$0.44/kWh"
            }
        },
        {
            "type": "Feature",
            "geometry": {
                "type": "Point",
                "coordinates": [
                    128.73166,
                    -15.77118
                ]
            },
            "properties": {
                "ID": 106989,
                "Title": "Kununurra Agricultural Show Grounds",
                "Operator": 1,
                "UsageCost": "Unknown"
            }
        },
        {
            "type": "Feature",
            "geometry": {
                "type": "Point",
                "coordinates": [
                    125.562926,
                    -18.196713
                ]
            },
            "properties": {
                "ID": 106990,
                "Title": "Fitzroy Crossing BP Roadhouse",
                "Operator": 1,
                "UsageCost": "Unknown"
            }
        },
        {
            "type": "Feature",
            "geometry": {
                "type": "Point",
                "coordinates": [
                    123.626462,
                    -17.307302
                ]
            },
            "properties": {
                "ID": 107003,
                "Title": "Kimberley Entrance Caravan Park",
                "Operator": 45,
                "UsageCost": "Unknown"
            }
        },
        {
            "type": "Feature",
            "geometry": {
                "type": "Point",
                "coordinates": [
                    138.597213,
                    -34.929893
                ]
            },
            "properties": {
                "ID": 107775,
                "Title": "Adelaide Central Market",
                "Operator": "Unknown",
                "UsageCost": "Free first hour then $0.20/kWh from 6am to 6pm Monday to Friday and then $0.10/kWh at all other times (Minimum fee of $1 applies after first hour)"
            }
        },
        {
            "type": "Feature",
            "geometry": {
                "type": "Point",
                "coordinates": [
                    138.605968,
                    -34.922927
                ]
            },
            "properties": {
                "ID": 107776,
                "Title": "Rundle UPark, Adelaide",
                "Operator": "Unknown",
                "UsageCost": "Free first hour then $0.20/kWh from 6am to 6pm Monday to Friday and then $0.10/kWh at all other times (Minimum fee of $1 applies after first hour)"
            }
        },
        {
            "type": "Feature",
            "geometry": {
                "type": "Point",
                "coordinates": [
                    138.604938,
                    -34.924422
                ]
            },
            "properties": {
                "ID": 107777,
                "Title": "Hindmarsh Square, Adelaide",
                "Operator": "Unknown",
                "UsageCost": "Free first hour then $0.20/kWh from 6am to 6pm Monday to Friday and then $0.10/kWh at all other times (Minimum fee of $1 applies after first hour)"
            }
        },
        {
            "type": "Feature",
            "geometry": {
                "type": "Point",
                "coordinates": [
                    138.604251,
                    -34.925003
                ]
            },
            "properties": {
                "ID": 107778,
                "Title": "Wyatt UPark, Adelaide",
                "Operator": "Unknown",
                "UsageCost": "Free first hour then $0.20/kWh from 6am to 6pm Monday to Friday and then $0.10/kWh at all other times"
            }
        },
        {
            "type": "Feature",
            "geometry": {
                "type": "Point",
                "coordinates": [
                    138.594656,
                    -34.925534
                ]
            },
            "properties": {
                "ID": 107779,
                "Title": "Light Square, Adelaide",
                "Operator": "Unknown",
                "UsageCost": "Free first hour then $0.20/kWh from 6am to 6pm Monday to Friday and then $0.10/kWh at all other times (Minimum fee of $1 applies after first hour)"
            }
        },
        {
            "type": "Feature",
            "geometry": {
                "type": "Point",
                "coordinates": [
                    138.597406,
                    -34.925583
                ]
            },
            "properties": {
                "ID": 107780,
                "Title": "Topham UPark, Adelaide",
                "Operator": "Unknown",
                "UsageCost": "Free first hour then $0.20/kWh from 6am to 6pm Monday to Friday and then $0.10/kWh at all other times (Minimum fee of $1 applies after first hour)"
            }
        },
        {
            "type": "Feature",
            "geometry": {
                "type": "Point",
                "coordinates": [
                    138.605519,
                    -34.907475
                ]
            },
            "properties": {
                "ID": 107781,
                "Title": "Jerningham Street, North Adelaide",
                "Operator": "Unknown",
                "UsageCost": "Free first hour then $0.20/kWh from 6am to 6pm Monday to Friday and then $0.10/kWh at all other times (Minimum fee of $1 applies after first hour)"
            }
        },
        {
            "type": "Feature",
            "geometry": {
                "type": "Point",
                "coordinates": [
                    150.128346,
                    -36.223136
                ]
            },
            "properties": {
                "ID": 109340,
                "Title": "Narooma Supercharger",
                "Operator": 3534,
                "UsageCost": "AUD 0.42/kWh;other tariffs for older cars"
            }
        },
        {
            "type": "Feature",
            "geometry": {
                "type": "Point",
                "coordinates": [
                    150.917343,
                    -31.101648
                ]
            },
            "properties": {
                "ID": 113602,
                "Title": "Tamworth Supercharger",
                "Operator": 23,
                "UsageCost": "AUD 0.42/kWh;other tariffs for older cars"
            }
        },
        {
            "type": "Feature",
            "geometry": {
                "type": "Point",
                "coordinates": [
                    153.427306,
                    -28.035361
                ]
            },
            "properties": {
                "ID": 113821,
                "Title": "Gold Coast Supercharger",
                "Operator": 23,
                "UsageCost": "AUD 0.42/kWh;other tariffs for older cars"
            }
        },
        {
            "type": "Feature",
            "geometry": {
                "type": "Point",
                "coordinates": [
                    149.190322,
                    -35.294304
                ]
            },
            "properties": {
                "ID": 113903,
                "Title": "Canberra Supercharger",
                "Operator": 23,
                "UsageCost": "AUD 0.42/kWh;other tariffs for older cars"
            }
        },
        {
            "type": "Feature",
            "geometry": {
                "type": "Point",
                "coordinates": [
                    153.087171,
                    -26.654159
                ]
            },
            "properties": {
                "ID": 114101,
                "Title": "Maroochydore Supercharger",
                "Operator": 23,
                "UsageCost": "AUD 0.42/kWh;other tariffs for older cars"
            }
        },
        {
            "type": "Feature",
            "geometry": {
                "type": "Point",
                "coordinates": [
                    139.276327,
                    -35.120328
                ]
            },
            "properties": {
                "ID": 114487,
                "Title": "Murray Bridge Visitor Information Centre",
                "Operator": 3310,
                "UsageCost": "Free"
            }
        },
        {
            "type": "Feature",
            "geometry": {
                "type": "Point",
                "coordinates": [
                    152.406377,
                    -24.763526
                ]
            },
            "properties": {
                "ID": 114996,
                "Title": "Sea Gypsy Boutique Cafe",
                "Operator": 3339,
                "UsageCost": "Free"
            }
        },
        {
            "type": "Feature",
            "geometry": {
                "type": "Point",
                "coordinates": [
                    115.937334,
                    -32.017682
                ]
            },
            "properties": {
                "ID": 116846,
                "Title": "Albany Highway",
                "Operator": 1,
                "UsageCost": "Unknown"
            }
        },
        {
            "type": "Feature",
            "geometry": {
                "type": "Point",
                "coordinates": [
                    153.083978,
                    -27.444337
                ]
            },
            "properties": {
                "ID": 116989,
                "Title": "North Shore Hamilton Station [QLD Electric Superhighway]",
                "Operator": 3317,
                "UsageCost": "0"
            }
        },
        {
            "type": "Feature",
            "geometry": {
                "type": "Point",
                "coordinates": [
                    148.609182,
                    -32.24995
                ]
            },
            "properties": {
                "ID": 121546,
                "Title": "Dubbo Supercharger [Tesla]",
                "Operator": 3534,
                "UsageCost": "$0.52/kWh"
            }
        },
        {
            "type": "Feature",
            "geometry": {
                "type": "Point",
                "coordinates": [
                    149.58664,
                    -33.419109
                ]
            },
            "properties": {
                "ID": 121552,
                "Title": "Bathurst Supercharger",
                "Operator": 3534,
                "UsageCost": "AUD 0.66/kWh;other tariffs for older cars"
            }
        },
        {
            "type": "Feature",
            "geometry": {
                "type": "Point",
                "coordinates": [
                    147.32406,
                    -42.881207
                ]
            },
            "properties": {
                "ID": 125734,
                "Title": "Hobart Central Car Park",
                "Operator": 45,
                "UsageCost": "Free"
            }
        },
        {
            "type": "Feature",
            "geometry": {
                "type": "Point",
                "coordinates": [
                    147.337128,
                    -42.880713
                ]
            },
            "properties": {
                "ID": 125885,
                "Title": "Macquarie Point Car Park",
                "Operator": 45,
                "UsageCost": "Free (usual parking charges apply)"
            }
        },
        {
            "type": "Feature",
            "geometry": {
                "type": "Point",
                "coordinates": [
                    146.550239,
                    -34.74657
                ]
            },
            "properties": {
                "ID": 126130,
                "Title": "Narrandera Marie Bashir Park [NRMA]",
                "Operator": 3388,
                "UsageCost": "Free"
            }
        },
        {
            "type": "Feature",
            "geometry": {
                "type": "Point",
                "coordinates": [
                    147.139492,
                    -41.435993
                ]
            },
            "properties": {
                "ID": 126235,
                "Title": "Paterson St East Car Park",
                "Operator": 3339,
                "UsageCost": "AUD 0.50 per kWh"
            }
        },
        {
            "type": "Feature",
            "geometry": {
                "type": "Point",
                "coordinates": [
                    145.591124,
                    -36.743055
                ]
            },
            "properties": {
                "ID": 126300,
                "Title": "Chargefox - Euroa",
                "Operator": 3339,
                "UsageCost": "Unknown"
            }
        },
        {
            "type": "Feature",
            "geometry": {
                "type": "Point",
                "coordinates": [
                    146.727148,
                    -36.074163
                ]
            },
            "properties": {
                "ID": 126602,
                "Title": "Chargefox - Barnawartha North",
                "Operator": 3339,
                "UsageCost": "AUD 0.65/kWh"
            }
        },
        {
            "type": "Feature",
            "geometry": {
                "type": "Point",
                "coordinates": [
                    146.716543,
                    -42.681839
                ]
            },
            "properties": {
                "ID": 126610,
                "Title": "Mount Field Visitor Centre",
                "Operator": "Unknown",
                "UsageCost": "Free (usual parking charges apply)"
            }
        },
        {
            "type": "Feature",
            "geometry": {
                "type": "Point",
                "coordinates": [
                    145.102335,
                    -37.702162
                ]
            },
            "properties": {
                "ID": 126711,
                "Title": "Greensborough Plaza",
                "Operator": 3339,
                "UsageCost": "Free"
            }
        },
        {
            "type": "Feature",
            "geometry": {
                "type": "Point",
                "coordinates": [
                    151.286663,
                    -33.750281
                ]
            },
            "properties": {
                "ID": 128195,
                "Title": "PCYC Car Park",
                "Operator": 5,
                "UsageCost": "Free"
            }
        },
        {
            "type": "Feature",
            "geometry": {
                "type": "Point",
                "coordinates": [
                    151.421114,
                    -33.309014
                ]
            },
            "properties": {
                "ID": 128371,
                "Title": "Central Coast Supercharger [Tesla]",
                "Operator": 23,
                "UsageCost": "$0.52/kWh"
            }
        },
        {
            "type": "Feature",
            "geometry": {
                "type": "Point",
                "coordinates": [
                    150.636711,
                    -34.808254
                ]
            },
            "properties": {
                "ID": 128374,
                "Title": "Berry Supercharger",
                "Operator": 3534,
                "UsageCost": "AUD 0.42/kWh;other tariffs for older cars"
            }
        },
        {
            "type": "Feature",
            "geometry": {
                "type": "Point",
                "coordinates": [
                    143.823742,
                    -37.535211
                ]
            },
            "properties": {
                "ID": 128458,
                "Title": "Gillies Street North",
                "Operator": 45,
                "UsageCost": "Free"
            }
        },
        {
            "type": "Feature",
            "geometry": {
                "type": "Point",
                "coordinates": [
                    146.279987,
                    -18.947773
                ]
            },
            "properties": {
                "ID": 128500,
                "Title": "Frosty Mango",
                "Operator": 23,
                "UsageCost": "Free"
            }
        },
        {
            "type": "Feature",
            "geometry": {
                "type": "Point",
                "coordinates": [
                    146.759301,
                    -36.587007
                ]
            },
            "properties": {
                "ID": 129973,
                "Title": "Ovens Supercharger",
                "Operator": 23,
                "UsageCost": "AUD 0.42/kWh;other tariffs for older cars"
            }
        },
        {
            "type": "Feature",
            "geometry": {
                "type": "Point",
                "coordinates": [
                    150.83232,
                    -32.447359
                ]
            },
            "properties": {
                "ID": 129982,
                "Title": "Hollydene Supercharger [Tesla]",
                "Operator": 3534,
                "UsageCost": "$0.52/kWh"
            }
        },
        {
            "type": "Feature",
            "geometry": {
                "type": "Point",
                "coordinates": [
                    151.224097,
                    -33.689336
                ]
            },
            "properties": {
                "ID": 130686,
                "Title": "Tastebuds Tesla Charger",
                "Operator": 45,
                "UsageCost": "Unknown"
            }
        },
        {
            "type": "Feature",
            "geometry": {
                "type": "Point",
                "coordinates": [
                    145.163278,
                    -37.835026
                ]
            },
            "properties": {
                "ID": 131201,
                "Title": "Forest Hill Chase Shopping Centre",
                "Operator": 3339,
                "UsageCost": "Free"
            }
        },
        {
            "type": "Feature",
            "geometry": {
                "type": "Point",
                "coordinates": [
                    150.890773,
                    -34.486883
                ]
            },
            "properties": {
                "ID": 131563,
                "Title": "Jax EV @ Warrawong Plaza",
                "Operator": 45,
                "UsageCost": "Free"
            }
        },
        {
            "type": "Feature",
            "geometry": {
                "type": "Point",
                "coordinates": [
                    150.863404,
                    -34.437432
                ]
            },
            "properties": {
                "ID": 131564,
                "Title": "Figtree Grove Shopping Centre ",
                "Operator": "Unknown",
                "UsageCost": "Free"
            }
        },
        {
            "type": "Feature",
            "geometry": {
                "type": "Point",
                "coordinates": [
                    150.899792,
                    -34.40013
                ]
            },
            "properties": {
                "ID": 131610,
                "Title": "Innovation Campus - University of Wollongong",
                "Operator": 1,
                "UsageCost": "Free"
            }
        },
        {
            "type": "Feature",
            "geometry": {
                "type": "Point",
                "coordinates": [
                    150.89228,
                    -34.423398
                ]
            },
            "properties": {
                "ID": 131841,
                "Title": "Wollongong Central - P1 Basement Car Park",
                "Operator": 45,
                "UsageCost": "Free"
            }
        },
        {
            "type": "Feature",
            "geometry": {
                "type": "Point",
                "coordinates": [
                    150.83832,
                    -34.563673
                ]
            },
            "properties": {
                "ID": 131881,
                "Title": "Stockland Shellharbour Shopping Centre ( Shellharbour Square) - West",
                "Operator": 5,
                "UsageCost": "Free"
            }
        },
        {
            "type": "Feature",
            "geometry": {
                "type": "Point",
                "coordinates": [
                    150.838163,
                    -34.563666
                ]
            },
            "properties": {
                "ID": 131895,
                "Title": "Stockland",
                "Operator": 23,
                "UsageCost": "Free"
            }
        },
        {
            "type": "Feature",
            "geometry": {
                "type": "Point",
                "coordinates": [
                    147.048364,
                    -43.029509
                ]
            },
            "properties": {
                "ID": 132346,
                "Title": "Huonville Council Car Park",
                "Operator": 45,
                "UsageCost": "Unknown"
            }
        },
        {
            "type": "Feature",
            "geometry": {
                "type": "Point",
                "coordinates": [
                    146.651256,
                    -41.523523
                ]
            },
            "properties": {
                "ID": 132347,
                "Title": "Great Western Tiers Visitor Centre",
                "Operator": 45,
                "UsageCost": "Unknown"
            }
        },
        {
            "type": "Feature",
            "geometry": {
                "type": "Point",
                "coordinates": [
                    147.189113,
                    -42.513254
                ]
            },
            "properties": {
                "ID": 132348,
                "Title": "Mood Food Kempton",
                "Operator": 3310,
                "UsageCost": "Unknown"
            }
        },
        {
            "type": "Feature",
            "geometry": {
                "type": "Point",
                "coordinates": [
                    115.686852,
                    -31.620443
                ]
            },
            "properties": {
                "ID": 132448,
                "Title": "Alkimos Shopping Center ",
                "Operator": 3339,
                "UsageCost": "$0.27 per kWh"
            }
        },
        {
            "type": "Feature",
            "geometry": {
                "type": "Point",
                "coordinates": [
                    116.163497,
                    -31.900887
                ]
            },
            "properties": {
                "ID": 132642,
                "Title": "McDonald's",
                "Operator": 45,
                "UsageCost": "Unknown"
            }
        },
        {
            "type": "Feature",
            "geometry": {
                "type": "Point",
                "coordinates": [
                    144.306478,
                    -36.774539
                ]
            },
            "properties": {
                "ID": 133061,
                "Title": "Bendigo",
                "Operator": 23,
                "UsageCost": "AUD 0.42/kWh;other tariffs for older cars"
            }
        },
        {
            "type": "Feature",
            "geometry": {
                "type": "Point",
                "coordinates": [
                    150.85559,
                    -33.95216
                ]
            },
            "properties": {
                "ID": 133760,
                "Title": "Woolworths Prestons",
                "Operator": 5,
                "UsageCost": "Free"
            }
        },
        {
            "type": "Feature",
            "geometry": {
                "type": "Point",
                "coordinates": [
                    115.78509,
                    -31.979331
                ]
            },
            "properties": {
                "ID": 134363,
                "Title": "McCarthy Prestige",
                "Operator": 23,
                "UsageCost": "Free"
            }
        },
        {
            "type": "Feature",
            "geometry": {
                "type": "Point",
                "coordinates": [
                    152.919392,
                    -30.705982
                ]
            },
            "properties": {
                "ID": 135413,
                "Title": "River Street Car Park",
                "Operator": 1,
                "UsageCost": "Free"
            }
        },
        {
            "type": "Feature",
            "geometry": {
                "type": "Point",
                "coordinates": [
                    153.003713,
                    -30.642316
                ]
            },
            "properties": {
                "ID": 135414,
                "Title": "Ridge Street Parking",
                "Operator": 1,
                "UsageCost": "Free"
            }
        },
        {
            "type": "Feature",
            "geometry": {
                "type": "Point",
                "coordinates": [
                    115.829086,
                    -31.947107
                ]
            },
            "properties": {
                "ID": 135438,
                "Title": "Stokes and Renk",
                "Operator": 45,
                "UsageCost": "Free"
            }
        },
        {
            "type": "Feature",
            "geometry": {
                "type": "Point",
                "coordinates": [
                    115.756089,
                    -31.929295
                ]
            },
            "properties": {
                "ID": 148039,
                "Title": "Floreat Beach",
                "Operator": 3622,
                "UsageCost": "$0.28 per kWh"
            }
        },
        {
            "type": "Feature",
            "geometry": {
                "type": "Point",
                "coordinates": [
                    115.837681,
                    -31.940264
                ]
            },
            "properties": {
                "ID": 148040,
                "Title": "Leederville Memorial Gardens",
                "Operator": 3298,
                "UsageCost": "See EO app"
            }
        },
        {
            "type": "Feature",
            "geometry": {
                "type": "Point",
                "coordinates": [
                    116.467589,
                    -31.550776
                ]
            },
            "properties": {
                "ID": 148048,
                "Title": "Toodyay Shire",
                "Operator": 3298,
                "UsageCost": "See EO app"
            }
        },
        {
            "type": "Feature",
            "geometry": {
                "type": "Point",
                "coordinates": [
                    116.827358,
                    -31.297932
                ]
            },
            "properties": {
                "ID": 148049,
                "Title": "Goomalling Railway Station",
                "Operator": 45,
                "UsageCost": "Unknown"
            }
        },
        {
            "type": "Feature",
            "geometry": {
                "type": "Point",
                "coordinates": [
                    115.797586,
                    -31.876373
                ]
            },
            "properties": {
                "ID": 148050,
                "Title": "Primewest Gwelup",
                "Operator": 3339,
                "UsageCost": "$0.45 per kWh"
            }
        },
        {
            "type": "Feature",
            "geometry": {
                "type": "Point",
                "coordinates": [
                    115.815028,
                    -31.795188
                ]
            },
            "properties": {
                "ID": 148057,
                "Title": "Wild West Hyundai",
                "Operator": 45,
                "UsageCost": "Unknown"
            }
        },
        {
            "type": "Feature",
            "geometry": {
                "type": "Point",
                "coordinates": [
                    115.837027,
                    -31.804428
                ]
            },
            "properties": {
                "ID": 148058,
                "Title": "EV Works",
                "Operator": 45,
                "UsageCost": "Unknown"
            }
        },
        {
            "type": "Feature",
            "geometry": {
                "type": "Point",
                "coordinates": [
                    115.806483,
                    -31.748961
                ]
            },
            "properties": {
                "ID": 148059,
                "Title": "Wanneroo Civic Centre",
                "Operator": 45,
                "UsageCost": "Free"
            }
        },
        {
            "type": "Feature",
            "geometry": {
                "type": "Point",
                "coordinates": [
                    115.892508,
                    -31.995196
                ]
            },
            "properties": {
                "ID": 148115,
                "Title": "Horizon Power Bentley Head Office",
                "Operator": 3339,
                "UsageCost": "Free"
            }
        },
        {
            "type": "Feature",
            "geometry": {
                "type": "Point",
                "coordinates": [
                    115.856998,
                    -32.125589
                ]
            },
            "properties": {
                "ID": 148117,
                "Title": "Cockburn City Central",
                "Operator": 3339,
                "UsageCost": "Standard ChargeFox rates apply"
            }
        },
        {
            "type": "Feature",
            "geometry": {
                "type": "Point",
                "coordinates": [
                    153.582389,
                    -28.631452
                ]
            },
            "properties": {
                "ID": 148118,
                "Title": "Bayshore Drive",
                "Operator": 3339,
                "UsageCost": "Free"
            }
        },
        {
            "type": "Feature",
            "geometry": {
                "type": "Point",
                "coordinates": [
                    148.109815,
                    -35.002247
                ]
            },
            "properties": {
                "ID": 148139,
                "Title": "Gundagai [Chargefox]",
                "Operator": 3339,
                "UsageCost": "$0.40/kWh [$0.32/kWh NRMA]"
            }
        },
        {
            "type": "Feature",
            "geometry": {
                "type": "Point",
                "coordinates": [
                    116.878631,
                    -33.025168
                ]
            },
            "properties": {
                "ID": 148393,
                "Title": "Williams Woolshed",
                "Operator": 23,
                "UsageCost": "$0.50 / kWh for non Woolshed customers"
            }
        },
        {
            "type": "Feature",
            "geometry": {
                "type": "Point",
                "coordinates": [
                    117.008983,
                    -32.365873
                ]
            },
            "properties": {
                "ID": 148394,
                "Title": "Brookton Roadhouse",
                "Operator": 3310,
                "UsageCost": "$0.45 / kWh"
            }
        },
        {
            "type": "Feature",
            "geometry": {
                "type": "Point",
                "coordinates": [
                    115.784202,
                    -32.100259
                ]
            },
            "properties": {
                "ID": 148518,
                "Title": "Cockburn City",
                "Operator": 3339,
                "UsageCost": "Free"
            }
        },
        {
            "type": "Feature",
            "geometry": {
                "type": "Point",
                "coordinates": [
                    116.138269,
                    -33.959313
                ]
            },
            "properties": {
                "ID": 148535,
                "Title": "RAC electric highway - Bridgetown",
                "Operator": 3310,
                "UsageCost": "$0.45/kWh"
            }
        },
        {
            "type": "Feature",
            "geometry": {
                "type": "Point",
                "coordinates": [
                    151.669684,
                    -32.902947
                ]
            },
            "properties": {
                "ID": 148545,
                "Title": "Wallsend [NRMA]",
                "Operator": 3388,
                "UsageCost": "Currently free but will be fee at some point."
            }
        },
        {
            "type": "Feature",
            "geometry": {
                "type": "Point",
                "coordinates": [
                    116.018935,
                    -32.150021
                ]
            },
            "properties": {
                "ID": 149179,
                "Title": "McDonald's Drive-Thru Armadale",
                "Operator": 3339,
                "UsageCost": "$0.20 per kWh"
            }
        },
        {
            "type": "Feature",
            "geometry": {
                "type": "Point",
                "coordinates": [
                    147.158722,
                    -41.468257
                ]
            },
            "properties": {
                "ID": 149219,
                "Title": "Chargefox Kings Meadows",
                "Operator": 3339,
                "UsageCost": "AUD 0.65 per kWh"
            }
        },
        {
            "type": "Feature",
            "geometry": {
                "type": "Point",
                "coordinates": [
                    116.475394,
                    -32.801927
                ]
            },
            "properties": {
                "ID": 149456,
                "Title": "Boddington Shire",
                "Operator": 1,
                "UsageCost": "Free"
            }
        },
        {
            "type": "Feature",
            "geometry": {
                "type": "Point",
                "coordinates": [
                    138.007369,
                    -33.179317
                ]
            },
            "properties": {
                "ID": 149466,
                "Title": "Northern Festival Centre",
                "Operator": "Unknown",
                "UsageCost": "Unknown"
            }
        },
        {
            "type": "Feature",
            "geometry": {
                "type": "Point",
                "coordinates": [
                    140.361987,
                    -36.105205
                ]
            },
            "properties": {
                "ID": 149622,
                "Title": "Chargefox Keith",
                "Operator": 3339,
                "UsageCost": "Unknown"
            }
        },
        {
            "type": "Feature",
            "geometry": {
                "type": "Point",
                "coordinates": [
                    151.947179,
                    -27.578133
                ]
            },
            "properties": {
                "ID": 149817,
                "Title": "Toowoomba Supercharger",
                "Operator": 3534,
                "UsageCost": "AUD 0.42/kWh;other tariffs for older cars"
            }
        },
        {
            "type": "Feature",
            "geometry": {
                "type": "Point",
                "coordinates": [
                    151.215231,
                    -33.902079
                ]
            },
            "properties": {
                "ID": 150024,
                "Title": "Supa Centa Moore Park",
                "Operator": 1,
                "UsageCost": "Free"
            }
        },
        {
            "type": "Feature",
            "geometry": {
                "type": "Point",
                "coordinates": [
                    151.12275,
                    -33.777782
                ]
            },
            "properties": {
                "ID": 150032,
                "Title": "Macquarie Supercharger",
                "Operator": 23,
                "UsageCost": "AUD 0.42/kWh;other tariffs for older cars"
            }
        },
        {
            "type": "Feature",
            "geometry": {
                "type": "Point",
                "coordinates": [
                    144.923586,
                    -37.765834
                ]
            },
            "properties": {
                "ID": 150039,
                "Title": "Moonee Ponds",
                "Operator": 23,
                "UsageCost": "AUD 0.42/kWh;other tariffs for older cars"
            }
        },
        {
            "type": "Feature",
            "geometry": {
                "type": "Point",
                "coordinates": [
                    149.585224,
                    -32.590168
                ]
            },
            "properties": {
                "ID": 150117,
                "Title": "Mudgee Information Centre",
                "Operator": 1,
                "UsageCost": "Unknown"
            }
        },
        {
            "type": "Feature",
            "geometry": {
                "type": "Point",
                "coordinates": [
                    150.161126,
                    -33.477937
                ]
            },
            "properties": {
                "ID": 154488,
                "Title": "Lithgow Workmen's Club",
                "Operator": 3388,
                "UsageCost": "Currently free but will be fee at some point"
            }
        },
        {
            "type": "Feature",
            "geometry": {
                "type": "Point",
                "coordinates": [
                    115.970283,
                    -32.522298
                ]
            },
            "properties": {
                "ID": 155242,
                "Title": "Caltex North Dandalup Roadhouse",
                "Operator": 3298,
                "UsageCost": "$0.35 per kWh, $5 minimum charge"
            }
        },
        {
            "type": "Feature",
            "geometry": {
                "type": "Point",
                "coordinates": [
                    115.756595,
                    -31.8971
                ]
            },
            "properties": {
                "ID": 155278,
                "Title": "Scarborough Beach",
                "Operator": 3298,
                "UsageCost": "Free"
            }
        },
        {
            "type": "Feature",
            "geometry": {
                "type": "Point",
                "coordinates": [
                    145.056346,
                    -37.828482
                ]
            },
            "properties": {
                "ID": 155292,
                "Title": "Camberwell Supercharger",
                "Operator": 23,
                "UsageCost": "AUD 0.42/kWh;other tariffs for older cars"
            }
        },
        {
            "type": "Feature",
            "geometry": {
                "type": "Point",
                "coordinates": [
                    118.27975,
                    -31.475517
                ]
            },
            "properties": {
                "ID": 155300,
                "Title": "Merredin Regional Community and Leisure Center ",
                "Operator": 3298,
                "UsageCost": "See EO app"
            }
        },
        {
            "type": "Feature",
            "geometry": {
                "type": "Point",
                "coordinates": [
                    152.661613,
                    -26.188745
                ]
            },
            "properties": {
                "ID": 155370,
                "Title": "Gympie Supercharger [Tesla]",
                "Operator": 3534,
                "UsageCost": "$0.52/kWh"
            }
        },
        {
            "type": "Feature",
            "geometry": {
                "type": "Point",
                "coordinates": [
                    146.830558,
                    -41.527973
                ]
            },
            "properties": {
                "ID": 155439,
                "Title": "Meander Valley Council",
                "Operator": 45,
                "UsageCost": "Unknown"
            }
        },
        {
            "type": "Feature",
            "geometry": {
                "type": "Point",
                "coordinates": [
                    146.412456,
                    -41.218329
                ]
            },
            "properties": {
                "ID": 155440,
                "Title": "House of Anvers",
                "Operator": "Unknown",
                "UsageCost": "Unknown"
            }
        },
        {
            "type": "Feature",
            "geometry": {
                "type": "Point",
                "coordinates": [
                    115.77214,
                    -32.057598
                ]
            },
            "properties": {
                "ID": 155496,
                "Title": "Evermore Apartments ",
                "Operator": 3310,
                "UsageCost": "see chargestar website "
            }
        },
        {
            "type": "Feature",
            "geometry": {
                "type": "Point",
                "coordinates": [
                    115.783042,
                    -31.977033
                ]
            },
            "properties": {
                "ID": 155497,
                "Title": "Claremont Oval",
                "Operator": 3310,
                "UsageCost": "free"
            }
        },
        {
            "type": "Feature",
            "geometry": {
                "type": "Point",
                "coordinates": [
                    115.773247,
                    -31.742428
                ]
            },
            "properties": {
                "ID": 155529,
                "Title": "Reid Promenade Car Park",
                "Operator": 3310,
                "UsageCost": "free charge, pay park"
            }
        },
        {
            "type": "Feature",
            "geometry": {
                "type": "Point",
                "coordinates": [
                    115.76562,
                    -31.745494
                ]
            },
            "properties": {
                "ID": 155530,
                "Title": "Lakeside Joondalup - Myer Carpark",
                "Operator": 45,
                "UsageCost": "Unknown"
            }
        },
        {
            "type": "Feature",
            "geometry": {
                "type": "Point",
                "coordinates": [
                    115.809338,
                    -32.04627
                ]
            },
            "properties": {
                "ID": 155545,
                "Title": "Magic Renault ",
                "Operator": 45,
                "UsageCost": "Unknown"
            }
        },
        {
            "type": "Feature",
            "geometry": {
                "type": "Point",
                "coordinates": [
                    115.759532,
                    -31.897329
                ]
            },
            "properties": {
                "ID": 155546,
                "Title": "Sundance Apartments",
                "Operator": 45,
                "UsageCost": "Unknown"
            }
        },
        {
            "type": "Feature",
            "geometry": {
                "type": "Point",
                "coordinates": [
                    115.731701,
                    -32.276131
                ]
            },
            "properties": {
                "ID": 155725,
                "Title": "Kent Street",
                "Operator": 45,
                "UsageCost": "Unknown"
            }
        },
        {
            "type": "Feature",
            "geometry": {
                "type": "Point",
                "coordinates": [
                    115.973962,
                    -32.144117
                ]
            },
            "properties": {
                "ID": 155820,
                "Title": "McDonalds Forrestdale",
                "Operator": 45,
                "UsageCost": "chargestar"
            }
        },
        {
            "type": "Feature",
            "geometry": {
                "type": "Point",
                "coordinates": [
                    115.767182,
                    -31.742737
                ]
            },
            "properties": {
                "ID": 155842,
                "Title": "Lakeside Cinema",
                "Operator": 45,
                "UsageCost": "Unknown"
            }
        },
        {
            "type": "Feature",
            "geometry": {
                "type": "Point",
                "coordinates": [
                    148.694353,
                    -33.83408
                ]
            },
            "properties": {
                "ID": 156010,
                "Title": "Cowra Regional Art Gallery",
                "Operator": 3388,
                "UsageCost": "Unknown"
            }
        },
        {
            "type": "Feature",
            "geometry": {
                "type": "Point",
                "coordinates": [
                    115.716176,
                    -31.688098
                ]
            },
            "properties": {
                "ID": 156019,
                "Title": "Clarkson Nissan ",
                "Operator": 45,
                "UsageCost": "Unknown"
            }
        },
        {
            "type": "Feature",
            "geometry": {
                "type": "Point",
                "coordinates": [
                    115.989076,
                    -31.972941
                ]
            },
            "properties": {
                "ID": 156052,
                "Title": "CD Dodd",
                "Operator": 3339,
                "UsageCost": "$0.40 / kWh + $0.33"
            }
        },
        {
            "type": "Feature",
            "geometry": {
                "type": "Point",
                "coordinates": [
                    115.970515,
                    -31.783067
                ]
            },
            "properties": {
                "ID": 156173,
                "Title": "Ellenbrook Central",
                "Operator": 45,
                "UsageCost": "Unknown"
            }
        },
        {
            "type": "Feature",
            "geometry": {
                "type": "Point",
                "coordinates": [
                    115.998535,
                    -31.795211
                ]
            },
            "properties": {
                "ID": 156174,
                "Title": "Edgecombe Brothers",
                "Operator": 45,
                "UsageCost": "Unknown"
            }
        },
        {
            "type": "Feature",
            "geometry": {
                "type": "Point",
                "coordinates": [
                    116.003395,
                    -31.886353
                ]
            },
            "properties": {
                "ID": 156175,
                "Title": "Swan City DC Charger",
                "Operator": 3310,
                "UsageCost": "chargestar/nextcharge"
            }
        },
        {
            "type": "Feature",
            "geometry": {
                "type": "Point",
                "coordinates": [
                    116.018117,
                    -31.891951
                ]
            },
            "properties": {
                "ID": 156184,
                "Title": "Midland City Nissan",
                "Operator": 45,
                "UsageCost": "Unknown"
            }
        },
        {
            "type": "Feature",
            "geometry": {
                "type": "Point",
                "coordinates": [
                    115.823153,
                    -31.949524
                ]
            },
            "properties": {
                "ID": 156185,
                "Title": "Rowland St Car Park - REV subiaco ",
                "Operator": 2,
                "UsageCost": "Unknown"
            }
        },
        {
            "type": "Feature",
            "geometry": {
                "type": "Point",
                "coordinates": [
                    115.828129,
                    -31.906542
                ]
            },
            "properties": {
                "ID": 156186,
                "Title": "Tang Computers",
                "Operator": 23,
                "UsageCost": "Unknown"
            }
        },
        {
            "type": "Feature",
            "geometry": {
                "type": "Point",
                "coordinates": [
                    115.841211,
                    -31.947469
                ]
            },
            "properties": {
                "ID": 156247,
                "Title": "CPP Mayfair St",
                "Operator": 45,
                "UsageCost": "Unknown"
            }
        },
        {
            "type": "Feature",
            "geometry": {
                "type": "Point",
                "coordinates": [
                    115.877303,
                    -31.95299
                ]
            },
            "properties": {
                "ID": 156248,
                "Title": "CPP Regal Place",
                "Operator": 45,
                "UsageCost": "Normal parking rate"
            }
        },
        {
            "type": "Feature",
            "geometry": {
                "type": "Point",
                "coordinates": [
                    115.834817,
                    -32.034643
                ]
            },
            "properties": {
                "ID": 156251,
                "Title": "Garden City Shopping Centre",
                "Operator": 5,
                "UsageCost": "Unknown"
            }
        },
        {
            "type": "Feature",
            "geometry": {
                "type": "Point",
                "coordinates": [
                    115.850217,
                    -32.011965
                ]
            },
            "properties": {
                "ID": 156252,
                "Title": "Sabina Appartments ",
                "Operator": 3310,
                "UsageCost": "nextcharge / chargestar website"
            }
        },
        {
            "type": "Feature",
            "geometry": {
                "type": "Point",
                "coordinates": [
                    115.843204,
                    -32.016031
                ]
            },
            "properties": {
                "ID": 156254,
                "Title": "Woolworths,  Mt Pleasant ",
                "Operator": 3339,
                "UsageCost": "Free"
            }
        },
        {
            "type": "Feature",
            "geometry": {
                "type": "Point",
                "coordinates": [
                    115.863582,
                    -31.958571
                ]
            },
            "properties": {
                "ID": 156256,
                "Title": "CPP Perth Concert Hall",
                "Operator": 45,
                "UsageCost": "Unknown"
            }
        },
        {
            "type": "Feature",
            "geometry": {
                "type": "Point",
                "coordinates": [
                    115.950168,
                    -31.903624
                ]
            },
            "properties": {
                "ID": 156257,
                "Title": "Bassendean Child Health Centre",
                "Operator": 3310,
                "UsageCost": "Unknown"
            }
        },
        {
            "type": "Feature",
            "geometry": {
                "type": "Point",
                "coordinates": [
                    115.847903,
                    -31.955377
                ]
            },
            "properties": {
                "ID": 156312,
                "Title": "CPP - PCEC",
                "Operator": 45,
                "UsageCost": "Unknown"
            }
        },
        {
            "type": "Feature",
            "geometry": {
                "type": "Point",
                "coordinates": [
                    115.904013,
                    -31.902121
                ]
            },
            "properties": {
                "ID": 156358,
                "Title": "Morley City Hyundai",
                "Operator": 45,
                "UsageCost": "Unknown"
            }
        },
        {
            "type": "Feature",
            "geometry": {
                "type": "Point",
                "coordinates": [
                    115.90491,
                    -31.902143
                ]
            },
            "properties": {
                "ID": 156359,
                "Title": "Morley City Nissan",
                "Operator": 45,
                "UsageCost": "Unknown"
            }
        },
        {
            "type": "Feature",
            "geometry": {
                "type": "Point",
                "coordinates": [
                    115.810211,
                    -31.905718
                ]
            },
            "properties": {
                "ID": 156360,
                "Title": "Osborne Park Nissan",
                "Operator": 45,
                "UsageCost": "Unknown"
            }
        },
        {
            "type": "Feature",
            "geometry": {
                "type": "Point",
                "coordinates": [
                    115.80909,
                    -31.905269
                ]
            },
            "properties": {
                "ID": 156361,
                "Title": "Osborne Park Hyundai",
                "Operator": 45,
                "UsageCost": "Unknown"
            }
        },
        {
            "type": "Feature",
            "geometry": {
                "type": "Point",
                "coordinates": [
                    115.332703,
                    -31.020574
                ]
            },
            "properties": {
                "ID": 156365,
                "Title": "Wangaree Park Lancelin",
                "Operator": 3298,
                "UsageCost": "Unknown"
            }
        },
        {
            "type": "Feature",
            "geometry": {
                "type": "Point",
                "coordinates": [
                    115.656798,
                    -32.881536
                ]
            },
            "properties": {
                "ID": 156413,
                "Title": "Footprints Resort",
                "Operator": 45,
                "UsageCost": "Unknown"
            }
        },
        {
            "type": "Feature",
            "geometry": {
                "type": "Point",
                "coordinates": [
                    116.152874,
                    -33.358825
                ]
            },
            "properties": {
                "ID": 156417,
                "Title": "Central Car Park,  Collie ",
                "Operator": 3339,
                "UsageCost": "$0.40 per kWh "
            }
        },
        {
            "type": "Feature",
            "geometry": {
                "type": "Point",
                "coordinates": [
                    115.948953,
                    -31.939845
                ]
            },
            "properties": {
                "ID": 156430,
                "Title": "DFO Perth",
                "Operator": 3339,
                "UsageCost": "Charging free, parking free for first hour and then $3 per hour"
            }
        },
        {
            "type": "Feature",
            "geometry": {
                "type": "Point",
                "coordinates": [
                    116.678459,
                    -31.651117
                ]
            },
            "properties": {
                "ID": 156463,
                "Title": "Jubilee Oval and Showgrounds ",
                "Operator": 45,
                "UsageCost": "Unknown"
            }
        },
        {
            "type": "Feature",
            "geometry": {
                "type": "Point",
                "coordinates": [
                    118.278793,
                    -31.4821
                ]
            },
            "properties": {
                "ID": 156473,
                "Title": "Central Wheatbelt Visitor Centre",
                "Operator": 45,
                "UsageCost": "$11 per hour"
            }
        },
        {
            "type": "Feature",
            "geometry": {
                "type": "Point",
                "coordinates": [
                    115.818695,
                    -31.944601
                ]
            },
            "properties": {
                "ID": 156482,
                "Title": "Gemtek - Botanical Apartments",
                "Operator": 3339,
                "UsageCost": "Unknown"
            }
        },
        {
            "type": "Feature",
            "geometry": {
                "type": "Point",
                "coordinates": [
                    115.901202,
                    -31.961098
                ]
            },
            "properties": {
                "ID": 156483,
                "Title": "Gemtek - Crest Apartments",
                "Operator": 3339,
                "UsageCost": "Unknown"
            }
        },
        {
            "type": "Feature",
            "geometry": {
                "type": "Point",
                "coordinates": [
                    115.777377,
                    -32.215538
                ]
            },
            "properties": {
                "ID": 157429,
                "Title": "Tianqi Lithium",
                "Operator": 45,
                "UsageCost": "Unknown"
            }
        },
        {
            "type": "Feature",
            "geometry": {
                "type": "Point",
                "coordinates": [
                    115.957882,
                    -31.982564
                ]
            },
            "properties": {
                "ID": 157430,
                "Title": "Terminal Road",
                "Operator": 23,
                "UsageCost": "Unknown"
            }
        },
        {
            "type": "Feature",
            "geometry": {
                "type": "Point",
                "coordinates": [
                    116.016698,
                    -31.837017
                ]
            },
            "properties": {
                "ID": 157431,
                "Title": "Mondo Nougat",
                "Operator": 23,
                "UsageCost": "Unknown"
            }
        },
        {
            "type": "Feature",
            "geometry": {
                "type": "Point",
                "coordinates": [
                    116.021639,
                    -31.835336
                ]
            },
            "properties": {
                "ID": 157432,
                "Title": "Swan Settlers Market",
                "Operator": 23,
                "UsageCost": "Unknown"
            }
        },
        {
            "type": "Feature",
            "geometry": {
                "type": "Point",
                "coordinates": [
                    117.159863,
                    -33.834483
                ]
            },
            "properties": {
                "ID": 157435,
                "Title": "Home Timber and Hardware",
                "Operator": 23,
                "UsageCost": "Unknown"
            }
        },
        {
            "type": "Feature",
            "geometry": {
                "type": "Point",
                "coordinates": [
                    115.069293,
                    -30.500422
                ]
            },
            "properties": {
                "ID": 157445,
                "Title": "Pinnacles Edge Resort",
                "Operator": 23,
                "UsageCost": "Unknown"
            }
        },
        {
            "type": "Feature",
            "geometry": {
                "type": "Point",
                "coordinates": [
                    151,
                    -33.964936
                ]
            },
            "properties": {
                "ID": 157456,
                "Title": "Georges River Council, Carlton Depot",
                "Operator": 3298,
                "UsageCost": "Free"
            }
        },
        {
            "type": "Feature",
            "geometry": {
                "type": "Point",
                "coordinates": [
                    151.117463,
                    -33.911489
                ]
            },
            "properties": {
                "ID": 157457,
                "Title": "Charles Street Parking/Charging",
                "Operator": 3298,
                "UsageCost": "Free"
            }
        },
        {
            "type": "Feature",
            "geometry": {
                "type": "Point",
                "coordinates": [
                    151.103913,
                    -33.907641
                ]
            },
            "properties": {
                "ID": 157463,
                "Title": "Canterbury Bankstown Council",
                "Operator": 3298,
                "UsageCost": "Free"
            }
        },
        {
            "type": "Feature",
            "geometry": {
                "type": "Point",
                "coordinates": [
                    115.819405,
                    -31.91527
                ]
            },
            "properties": {
                "ID": 157530,
                "Title": "Audi Centre",
                "Operator": 3339,
                "UsageCost": "$0.40 per kWh"
            }
        },
        {
            "type": "Feature",
            "geometry": {
                "type": "Point",
                "coordinates": [
                    153.02378,
                    -27.48256
                ]
            },
            "properties": {
                "ID": 157531,
                "Title": "Secure Park Vulture St",
                "Operator": 45,
                "UsageCost": "Free"
            }
        },
        {
            "type": "Feature",
            "geometry": {
                "type": "Point",
                "coordinates": [
                    153.026906,
                    -27.476902
                ]
            },
            "properties": {
                "ID": 157545,
                "Title": "QUT Gardens Point",
                "Operator": 45,
                "UsageCost": "Unknown"
            }
        },
        {
            "type": "Feature",
            "geometry": {
                "type": "Point",
                "coordinates": [
                    153.022826,
                    -27.480992
                ]
            },
            "properties": {
                "ID": 157547,
                "Title": "Secure Park Southpoint",
                "Operator": 45,
                "UsageCost": "Free"
            }
        },
        {
            "type": "Feature",
            "geometry": {
                "type": "Point",
                "coordinates": [
                    153.032591,
                    -27.452654
                ]
            },
            "properties": {
                "ID": 157548,
                "Title": "Secure Park King St",
                "Operator": 45,
                "UsageCost": "Free"
            }
        },
        {
            "type": "Feature",
            "geometry": {
                "type": "Point",
                "coordinates": [
                    152.996844,
                    -26.918077
                ]
            },
            "properties": {
                "ID": 157549,
                "Title": "Evie Networks Coochin Creek",
                "Operator": 3398,
                "UsageCost": "60c/kWh"
            }
        },
        {
            "type": "Feature",
            "geometry": {
                "type": "Point",
                "coordinates": [
                    153.017034,
                    -27.453204
                ]
            },
            "properties": {
                "ID": 157551,
                "Title": "QUT Kelvin Grove H Block",
                "Operator": 45,
                "UsageCost": "Free"
            }
        },
        {
            "type": "Feature",
            "geometry": {
                "type": "Point",
                "coordinates": [
                    153.017089,
                    -27.449554
                ]
            },
            "properties": {
                "ID": 157552,
                "Title": "QUT Kelvin Grove Stadium Carpark",
                "Operator": 45,
                "UsageCost": "Free charging but parking starts at $5/hr, with up to 20 minutes free."
            }
        },
        {
            "type": "Feature",
            "geometry": {
                "type": "Point",
                "coordinates": [
                    115.031133,
                    -33.787023
                ]
            },
            "properties": {
                "ID": 157557,
                "Title": "Woodlands Wines",
                "Operator": 23,
                "UsageCost": "Unknown"
            }
        },
        {
            "type": "Feature",
            "geometry": {
                "type": "Point",
                "coordinates": [
                    150.17553,
                    -35.708505
                ]
            },
            "properties": {
                "ID": 157566,
                "Title": "Batemans Bay Visitor Centre [NRMA]",
                "Operator": 3388,
                "UsageCost": "Unknown"
            }
        },
        {
            "type": "Feature",
            "geometry": {
                "type": "Point",
                "coordinates": [
                    153.043096,
                    -27.443107
                ]
            },
            "properties": {
                "ID": 157589,
                "Title": "Bunnings Newstead Carpark",
                "Operator": 45,
                "UsageCost": "Free"
            }
        },
        {
            "type": "Feature",
            "geometry": {
                "type": "Point",
                "coordinates": [
                    153.039221,
                    -27.489688
                ]
            },
            "properties": {
                "ID": 157591,
                "Title": "Wellington Road",
                "Operator": 45,
                "UsageCost": "Free"
            }
        },
        {
            "type": "Feature",
            "geometry": {
                "type": "Point",
                "coordinates": [
                    147.06114,
                    -42.779254
                ]
            },
            "properties": {
                "ID": 157595,
                "Title": "Mood Food New Norfolk",
                "Operator": 3310,
                "UsageCost": "Unknown"
            }
        },
        {
            "type": "Feature",
            "geometry": {
                "type": "Point",
                "coordinates": [
                    147.514608,
                    -41.162079
                ]
            },
            "properties": {
                "ID": 157596,
                "Title": "Scottsdale Art Gallery Cafe",
                "Operator": 3339,
                "UsageCost": "$0.50 per kWh 7am-10am/4pm-9pm Monday - Friday, $0.40 other times"
            }
        },
        {
            "type": "Feature",
            "geometry": {
                "type": "Point",
                "coordinates": [
                    146.324889,
                    -41.382815
                ]
            },
            "properties": {
                "ID": 157597,
                "Title": "Sheffield Visitor Information Centre",
                "Operator": 3339,
                "UsageCost": "Free"
            }
        },
        {
            "type": "Feature",
            "geometry": {
                "type": "Point",
                "coordinates": [
                    144.885691,
                    -37.713646
                ]
            },
            "properties": {
                "ID": 157608,
                "Title": "Chargefox Airport West",
                "Operator": 3339,
                "UsageCost": "$0.65 per kwH, discount for RACV members"
            }
        },
        {
            "type": "Feature",
            "geometry": {
                "type": "Point",
                "coordinates": [
                    151.268972,
                    -27.179803
                ]
            },
            "properties": {
                "ID": 160807,
                "Title": "Bell Park car park",
                "Operator": 3339,
                "UsageCost": "0.30/kWh"
            }
        },
        {
            "type": "Feature",
            "geometry": {
                "type": "Point",
                "coordinates": [
                    117.558789,
                    -33.685949
                ]
            },
            "properties": {
                "ID": 161350,
                "Title": "YellowGum Bed and Breakfast",
                "Operator": 45,
                "UsageCost": "Unknown"
            }
        },
        {
            "type": "Feature",
            "geometry": {
                "type": "Point",
                "coordinates": [
                    117.555739,
                    -33.69138
                ]
            },
            "properties": {
                "ID": 161356,
                "Title": "Katanning Shire Visitors Center",
                "Operator": 3310,
                "UsageCost": "45c/kWh"
            }
        },
        {
            "type": "Feature",
            "geometry": {
                "type": "Point",
                "coordinates": [
                    115.753027,
                    -31.994805
                ]
            },
            "properties": {
                "ID": 161357,
                "Title": "Cottesloe Beach Chalets",
                "Operator": 23,
                "UsageCost": "Unknown"
            }
        },
        {
            "type": "Feature",
            "geometry": {
                "type": "Point",
                "coordinates": [
                    147.36897,
                    -42.864154
                ]
            },
            "properties": {
                "ID": 161654,
                "Title": "Clarence City Council car park",
                "Operator": 3339,
                "UsageCost": "$0.32 per kWh"
            }
        },
        {
            "type": "Feature",
            "geometry": {
                "type": "Point",
                "coordinates": [
                    133.878734,
                    -23.697529
                ]
            },
            "properties": {
                "ID": 161827,
                "Title": "Alicetronics Jaycar Stockist",
                "Operator": 1,
                "UsageCost": "Free "
            }
        },
        {
            "type": "Feature",
            "geometry": {
                "type": "Point",
                "coordinates": [
                    145.935314,
                    -41.573658
                ]
            },
            "properties": {
                "ID": 161829,
                "Title": "Cradle Mountain Hotel",
                "Operator": 1,
                "UsageCost": "Unknown"
            }
        },
        {
            "type": "Feature",
            "geometry": {
                "type": "Point",
                "coordinates": [
                    151.778921,
                    -32.925851
                ]
            },
            "properties": {
                "ID": 161831,
                "Title": "Wharf Road Carpark (Chargefox)",
                "Operator": 3339,
                "UsageCost": "Currently free thanks to City of Newcastle"
            }
        },
        {
            "type": "Feature",
            "geometry": {
                "type": "Point",
                "coordinates": [
                    151.130773,
                    -32.990225
                ]
            },
            "properties": {
                "ID": 161832,
                "Title": "Great North Trading Post",
                "Operator": 45,
                "UsageCost": "Free"
            }
        },
        {
            "type": "Feature",
            "geometry": {
                "type": "Point",
                "coordinates": [
                    150.61093,
                    -34.168206
                ]
            },
            "properties": {
                "ID": 161843,
                "Title": "Picton [NRMA]",
                "Operator": 3388,
                "UsageCost": "Currently free but will be fee at some point"
            }
        },
        {
            "type": "Feature",
            "geometry": {
                "type": "Point",
                "coordinates": [
                    150.442447,
                    -34.450029
                ]
            },
            "properties": {
                "ID": 161844,
                "Title": "Mittagong NRMA",
                "Operator": 3388,
                "UsageCost": "Currently free but will be fee at some point for non NRMA Members."
            }
        },
        {
            "type": "Feature",
            "geometry": {
                "type": "Point",
                "coordinates": [
                    150.70084,
                    -34.775459
                ]
            },
            "properties": {
                "ID": 161845,
                "Title": "Berry NRMA",
                "Operator": 3388,
                "UsageCost": "Currently free but will be fee at some point for non NRMA Members"
            }
        },
        {
            "type": "Feature",
            "geometry": {
                "type": "Point",
                "coordinates": [
                    153.032901,
                    -27.382352
                ]
            },
            "properties": {
                "ID": 161846,
                "Title": "Way Street",
                "Operator": 5,
                "UsageCost": "0"
            }
        },
        {
            "type": "Feature",
            "geometry": {
                "type": "Point",
                "coordinates": [
                    152.381366,
                    -32.099111
                ]
            },
            "properties": {
                "ID": 161993,
                "Title": "Nabiac [NRMA]",
                "Operator": 3388,
                "UsageCost": "Free currently, join NRMA as a thank you."
            }
        },
        {
            "type": "Feature",
            "geometry": {
                "type": "Point",
                "coordinates": [
                    115.815977,
                    -31.792734
                ]
            },
            "properties": {
                "ID": 16213,
                "Title": "Phoenix Holden",
                "Operator": 45,
                "UsageCost": "Free"
            }
        },
        {
            "type": "Feature",
            "geometry": {
                "type": "Point",
                "coordinates": [
                    115.805476,
                    -31.8608
                ]
            },
            "properties": {
                "ID": 16214,
                "Title": "EV Shop",
                "Operator": 45,
                "UsageCost": "Free"
            }
        },
        {
            "type": "Feature",
            "geometry": {
                "type": "Point",
                "coordinates": [
                    115.884495,
                    -31.996175
                ]
            },
            "properties": {
                "ID": 16228,
                "Title": "Department of Biodiversity, Conservation and Attractions KMCSC",
                "Operator": 3339,
                "UsageCost": ""
            }
        },
        {
            "type": "Feature",
            "geometry": {
                "type": "Point",
                "coordinates": [
                    115.85039,
                    -31.94944
                ]
            },
            "properties": {
                "ID": 16263,
                "Title": "Elder St - City of Perth Parking",
                "Operator": 45,
                "UsageCost": "Free"
            }
        },
        {
            "type": "Feature",
            "geometry": {
                "type": "Point",
                "coordinates": [
                    115.751576,
                    -32.046135
                ]
            },
            "properties": {
                "ID": 16266,
                "Title": "Shacks Holden",
                "Operator": 45,
                "UsageCost": "Free"
            }
        },
        {
            "type": "Feature",
            "geometry": {
                "type": "Point",
                "coordinates": [
                    115.80923,
                    -32.045836
                ]
            },
            "properties": {
                "ID": 16268,
                "Title": "Magic Kia / Renault",
                "Operator": 1,
                "UsageCost": "Free"
            }
        },
        {
            "type": "Feature",
            "geometry": {
                "type": "Point",
                "coordinates": [
                    116.128461,
                    -34.282476
                ]
            },
            "properties": {
                "ID": 16270,
                "Title": "Stellar Violets",
                "Operator": 45,
                "UsageCost": "Contribution to electricity used is requested"
            }
        },
        {
            "type": "Feature",
            "geometry": {
                "type": "Point",
                "coordinates": [
                    146.229257,
                    -42.135775
                ]
            },
            "properties": {
                "ID": 162778,
                "Title": "Derwent Bridge Rest Area",
                "Operator": 3406,
                "UsageCost": "25c/kWh + 25c/min"
            }
        },
        {
            "type": "Feature",
            "geometry": {
                "type": "Point",
                "coordinates": [
                    147.324839,
                    -42.902797
                ]
            },
            "properties": {
                "ID": 162794,
                "Title": "TUU Car Park",
                "Operator": 45,
                "UsageCost": "Free"
            }
        },
        {
            "type": "Feature",
            "geometry": {
                "type": "Point",
                "coordinates": [
                    115.856997,
                    -31.948616
                ]
            },
            "properties": {
                "ID": 16283,
                "Title": "Roe St - City of Perth Parking",
                "Operator": 45,
                "UsageCost": "Free"
            }
        },
        {
            "type": "Feature",
            "geometry": {
                "type": "Point",
                "coordinates": [
                    147.494481,
                    -41.929229
                ]
            },
            "properties": {
                "ID": 162843,
                "Title": "Evie Networks - Campbell Town",
                "Operator": 3398,
                "UsageCost": "60c/kWh"
            }
        },
        {
            "type": "Feature",
            "geometry": {
                "type": "Point",
                "coordinates": [
                    115.860829,
                    -31.951443
                ]
            },
            "properties": {
                "ID": 16285,
                "Title": "Citiplace Community Centre Parking",
                "Operator": 1,
                "UsageCost": "Free"
            }
        },
        {
            "type": "Feature",
            "geometry": {
                "type": "Point",
                "coordinates": [
                    115.854262,
                    -31.952017
                ]
            },
            "properties": {
                "ID": 16286,
                "Title": "His Majesty's - Carpark",
                "Operator": 45,
                "UsageCost": "Free"
            }
        },
        {
            "type": "Feature",
            "geometry": {
                "type": "Point",
                "coordinates": [
                    115.86282,
                    -31.953783
                ]
            },
            "properties": {
                "ID": 16287,
                "Title": "Pier Street - City of Perth Parking",
                "Operator": 1,
                "UsageCost": "Free"
            }
        },
        {
            "type": "Feature",
            "geometry": {
                "type": "Point",
                "coordinates": [
                    115.870132,
                    -31.957191
                ]
            },
            "properties": {
                "ID": 16288,
                "Title": "Goderich St Carpark - City of Perth Parking",
                "Operator": 45,
                "UsageCost": "Free"
            }
        },
        {
            "type": "Feature",
            "geometry": {
                "type": "Point",
                "coordinates": [
                    115.816345,
                    -31.977629
                ]
            },
            "properties": {
                "ID": 16299,
                "Title": "University of Western Australia",
                "Operator": 57,
                "UsageCost": "Free"
            }
        },
        {
            "type": "Feature",
            "geometry": {
                "type": "Point",
                "coordinates": [
                    115.638584,
                    -31.54912
                ]
            },
            "properties": {
                "ID": 16300,
                "Title": "Yanchep Central Shopping Centre",
                "Operator": 45,
                "UsageCost": "Free"
            }
        },
        {
            "type": "Feature",
            "geometry": {
                "type": "Point",
                "coordinates": [
                    116.097473,
                    -31.386192
                ]
            },
            "properties": {
                "ID": 16322,
                "Title": "Bindoon Oval",
                "Operator": 1,
                "UsageCost": "Free"
            }
        },
        {
            "type": "Feature",
            "geometry": {
                "type": "Point",
                "coordinates": [
                    142.93387,
                    -37.283411
                ]
            },
            "properties": {
                "ID": 163388,
                "Title": "Queen Street",
                "Operator": 23,
                "UsageCost": "Unknown"
            }
        },
        {
            "type": "Feature",
            "geometry": {
                "type": "Point",
                "coordinates": [
                    145.555497,
                    -42.078729
                ]
            },
            "properties": {
                "ID": 165108,
                "Title": "Electric Highway Tasmania - Queenstown",
                "Operator": 3406,
                "UsageCost": "25c/kWh + 25c/min"
            }
        },